[{"name":"AdventNet","company_id":"52cdef7c4bab8bd675297d8b","description":"","address1":"270 Lafayette Street","address2":"Suite 505","zip_code":"10012","city":"New York","state_code":"NY","country_code":"USA","latitude":40.7237306,"longitude":-73.9964312,"geopoint":{"type":"Point","coordinates":[-73.9964312,40.7237306]}},{"name":"Zoho","company_id":"52cdef7c4bab8bd675297d8c","description":"New York","address1":"340 Madison Ave","address2":"","zip_code":"10017","city":"New York","state_code":"NY","country_code":"USA","latitude":40.7557162,"longitude":-73.9792469,"geopoint":{"type":"Point","coordinates":[-73.9792469,40.7557162]}},{"name":"Omnidrive","company_id":"52cdef7c4bab8bd675297d8f","description":"","address1":"100 5th Ave Fl 6","address2":"","zip_code":"10011-6903","city":"New York","state_code":"NY","country_code":"USA","latitude":40.7464969,"longitude":-74.0094471,"geopoint":{"type":"Point","coordinates":[-74.0094471,40.7464969]}},{"name":"Postini","company_id":"52cdef7c4bab8bd675297d90","description":"HQ","address1":"1515 Broadway","address2":"","zip_code":"10036","city":"New York","state_code":"NY","country_code":"USA","latitude":40.757725,"longitude":-73.986011,"geopoint":{"type":"Point","coordinates":[-73.986011,40.757725]}},{"name":"Geni","company_id":"52cdef7c4bab8bd675297d91","description":"Livestream HQ","address1":"111 8th Avenue, #1509","address2":"","zip_code":"10011","city":"New York","state_code":"NY","country_code":"USA","latitude":40.726155,"longitude":-73.995625,"geopoint":{"type":"Point","coordinates":[-73.995625,40.726155]}},{"name":"Flektor","company_id":"52cdef7c4bab8bd675297d92","description":"","address1":"131 Varick St","address2":"","zip_code":"10013","city":"NYC","state_code":"NY","country_code":"USA","latitude":40.801358,"longitude":-74.3372,"geopoint":{"type":"Point","coordinates":[-74.3372,40.801358]}},{"name":"Digg","company_id":"52cdef7c4bab8bd675297d8d","description":"","address1":"60 5th Avenue","address2":"","zip_code":"10011","city":"New York","state_code":"NY","country_code":"USA","latitude":40.736416,"longitude":-73.993302,"geopoint":{"type":"Point","coordinates":[-73.993302,40.736416]}},{"name":"Wetpaint","company_id":"52cdef7c4bab8bd675297d8a","description":"HQ","address1":"770 Broadway","address2":"","zip_code":"10003","city":"New York","state_code":"NY","country_code":"USA","latitude":40.7311317,"longitude":-73.9919311,"geopoint":{"type":"Point","coordinates":[-73.9919311,40.7311317]}},{"name":"Fox Interactive Media","company_id":"52cdef7c4bab8bd675297d93","description":"","address1":"85 Broad Street","address2":"","zip_code":"10004","city":"New York","state_code":"NY","country_code":"USA","latitude":40.731118,"longitude":-73.991933,"geopoint":{"type":"Point","coordinates":[-73.991933,40.731118]}},{"name":"StumbleUpon","company_id":"52cdef7c4bab8bd675297d95","description":"Corporate Headquarters","address1":"40 Fulton St.","address2":"","zip_code":"10038","city":"New York","state_code":"NY","country_code":"USA","latitude":40.707921,"longitude":-74.004792,"geopoint":{"type":"Point","coordinates":[-74.004792,40.707921]}},{"name":"Gizmoz","company_id":"52cdef7c4bab8bd675297d96","description":"","address1":"SoHo","address2":"","zip_code":"","city":"New York","state_code":"NY","country_code":"USA","latitude":40.723384,"longitude":-74.001704,"geopoint":{"type":"Point","coordinates":[-74.001704,40.723384]}},{"name":"Facebook","company_id":"52cdef7c4bab8bd675297d8e","description":"","address1":"","address2":"","zip_code":"10012","city":"New York","state_code":"NY","country_code":"USA","latitude":40.74406,"longitude":-74.004592,"geopoint":{"type":"Point","coordinates":[-74.004592,40.74406]}},{"name":"Slacker","company_id":"52cdef7c4bab8bd675297d98","description":"Corporate Headquarters","address1":"270 Lafayette Street","address2":"Suite 700","zip_code":"10012","city":"New York","state_code":"NY","country_code":"USA","latitude":40.723703,"longitude":-73.99644,"geopoint":{"type":"Point","coordinates":[-73.99644,40.723703]}},{"name":"Helio","company_id":"52cdef7c4bab8bd675297d9a","description":"CondoDomain HQ","address1":"110 Greene Street","address2":"Suite 1109","zip_code":"10012","city":"New York","state_code":"NY","country_code":"USA","latitude":42.349164,"longitude":-71.049346,"geopoint":{"type":"Point","coordinates":[-71.049346,42.349164]}},{"name":"Lala","company_id":"52cdef7c4bab8bd675297d99","description":"Corporate Headquarters","address1":"419 Park Ave. South","address2":"Suite 807","zip_code":"10016","city":"New York","state_code":"NY","country_code":"USA","latitude":40.743808,"longitude":-73.983626,"geopoint":{"type":"Point","coordinates":[-73.983626,40.743808]}},{"name":"Scribd","company_id":"52cdef7c4bab8bd675297d97","description":"","address1":"","address2":"","zip_code":"11215","city":"Brooklyn","state_code":"NY","country_code":"USA","latitude":40.6632194,"longitude":-73.9800645,"geopoint":{"type":"Point","coordinates":[-73.9800645,40.6632194]}},{"name":"MeetMoi","company_id":"52cdef7c4bab8bd675297d9c","description":"","address1":"555 W 18th St","address2":"","zip_code":"10011-2822","city":"New York","state_code":"NY","country_code":"USA","latitude":40.7453721,"longitude":-74.0078293,"geopoint":{"type":"Point","coordinates":[-74.0078293,40.7453721]}},{"name":"Joost","company_id":"52cdef7c4bab8bd675297d9d","description":"HQ","address1":"469 7th Avenue","address2":"","zip_code":"10018","city":"New York","state_code":"NY","country_code":"USA","latitude":37.09024,"longitude":-95.712891,"geopoint":{"type":"Point","coordinates":[-95.712891,37.09024]}},{"name":"Twitter","company_id":"52cdef7c4bab8bd675297d94","description":"Business HQ","address1":"307 Fifth Avenue","address2":"Floor 7","zip_code":"10016","city":"New York","state_code":"NY","country_code":"USA","latitude":38.984172,"longitude":-77.095965,"geopoint":{"type":"Point","coordinates":[-77.095965,38.984172]}},{"name":"CBS","company_id":"52cdef7c4bab8bd675297d9e","description":"","address1":"80 Broad St","address2":"28th Floor","zip_code":"10004","city":"New York","state_code":"NY","country_code":"USA","latitude":40.606061,"longitude":-73.822331,"geopoint":{"type":"Point","coordinates":[-73.822331,40.606061]}},{"name":"Babelgum","company_id":"52cdef7c4bab8bd675297da0","description":"","address1":"","address2":"","zip_code":"","city":"New York","state_code":"NY","country_code":"USA","latitude":37.09024,"longitude":-95.712891,"geopoint":{"type":"Point","coordinates":[-95.712891,37.09024]}},{"name":"Viacom","company_id":"52cdef7c4bab8bd675297d9f","description":"","address1":"54 West 22nd Street","address2":"","zip_code":"10003","city":"New York","state_code":"NY","country_code":"USA","latitude":40.737136,"longitude":-73.987973,"geopoint":{"type":"Point","coordinates":[-73.987973,40.737136]}},{"name":"Plaxo","company_id":"52cdef7c4bab8bd675297da1","description":"","address1":"620 8th Ave","address2":"45th Floor","zip_code":"10018","city":"New York","state_code":"NY","country_code":"USA","latitude":40.755978,"longitude":-73.990396,"geopoint":{"type":"Point","coordinates":[-73.990396,40.755978]}},{"name":"Powerset","company_id":"52cdef7c4bab8bd675297da4","description":"","address1":"","address2":"","zip_code":"10706","city":"Hastings-on-Hudson","state_code":"NY","country_code":"USA","latitude":41.035749,"longitude":-73.865287,"geopoint":{"type":"Point","coordinates":[-73.865287,41.035749]}},{"name":"eBay","company_id":"52cdef7c4bab8bd675297d9b","description":"","address1":"55 Washington St.","address2":"5th Floor","zip_code":"11201","city":"Brooklyn","state_code":"NY","country_code":"USA","latitude":40.694731,"longitude":-73.983268,"geopoint":{"type":"Point","coordinates":[-73.983268,40.694731]}},{"name":"Technorati","company_id":"52cdef7c4bab8bd675297da5","description":"","address1":"55 Broad Street","address2":"24th Floor","zip_code":"10004","city":"New York","state_code":"NY","country_code":"USA","latitude":37.402802,"longitude":-122.117418,"geopoint":{"type":"Point","coordinates":[-122.117418,37.402802]}},{"name":"SpinVox","company_id":"52cdef7c4bab8bd675297da6","description":"HQ","address1":"419 Lafayette Street","address2":"2nd Floor","zip_code":"10003","city":"New York","state_code":"NY","country_code":"USA","latitude":37.09024,"longitude":-95.712891,"geopoint":{"type":"Point","coordinates":[-95.712891,37.09024]}},{"name":"AddThis","company_id":"52cdef7c4bab8bd675297da7","description":"","address1":"32 Cooper Square","address2":"Fl2","zip_code":"10003","city":"","state_code":"NY","country_code":"USA","latitude":40.757929,"longitude":-73.985506,"geopoint":{"type":"Point","coordinates":[-73.985506,40.757929]}},{"name":"Mahalo","company_id":"52cdef7c4bab8bd675297da9","description":"HQ","address1":"210 Elizabeth Street","address2":"Fourth Floor","zip_code":"10012","city":"New York","state_code":"NY","country_code":"USA","latitude":40.757929,"longitude":-73.985506,"geopoint":{"type":"Point","coordinates":[-73.985506,40.757929]}},{"name":"OpenX","company_id":"52cdef7c4bab8bd675297da8","description":"","address1":"373 Park Avenue S","address2":"","zip_code":"10016","city":"New York","state_code":"NY","country_code":"USA","latitude":37.125766,"longitude":-84.07986,"geopoint":{"type":"Point","coordinates":[-84.07986,37.125766]}},{"name":"Sparter","company_id":"52cdef7c4bab8bd675297daa","description":"Viacom Headquarters","address1":"1515 Broadway","address2":"","zip_code":"10036","city":"New York","state_code":"NY","country_code":"USA","latitude":40.7577017,"longitude":-73.9858165,"geopoint":{"type":"Point","coordinates":[-73.9858165,40.7577017]}},{"name":"Kyte","company_id":"52cdef7c4bab8bd675297dab","description":"","address1":"","address2":"","zip_code":"10011","city":"New York","state_code":"NY","country_code":"USA","latitude":40.7431477,"longitude":-73.9934288,"geopoint":{"type":"Point","coordinates":[-73.9934288,40.7431477]}},{"name":"Veoh","company_id":"52cdef7c4bab8bd675297dac","description":"New York office","address1":"44 East 30th Street","address2":"11th Floor","zip_code":"10016","city":"New York","state_code":"NY","country_code":"USA","latitude":40.744639,"longitude":-73.983963,"geopoint":{"type":"Point","coordinates":[-73.983963,40.744639]}},{"name":"Thoof","company_id":"52cdef7c4bab8bd675297dae","description":"New York Office","address1":"3rd St & Ave A","address2":"","zip_code":"10016","city":"New York","state_code":"NY","country_code":"USA","latitude":40.723652,"longitude":-73.985281,"geopoint":{"type":"Point","coordinates":[-73.985281,40.723652]}},{"name":"Gannett","company_id":"52cdef7c4bab8bd675297dad","description":"New York","address1":"116 E. 16th Street","address2":"12th Floor","zip_code":"10003","city":"New York City","state_code":"NY","country_code":"USA","latitude":40.757929,"longitude":-73.985506,"geopoint":{"type":"Point","coordinates":[-73.985506,40.757929]}},{"name":"Info","company_id":"52cdef7c4bab8bd675297db0","description":"","address1":"","address2":"","zip_code":"","city":"","state_code":"NY","country_code":"USA","latitude":32.6460331,"longitude":-16.9147342,"geopoint":{"type":"Point","coordinates":[-16.9147342,32.6460331]}},{"name":"JotSpot","company_id":"52cdef7c4bab8bd675297db1","description":"","address1":"1 Half Moon Ln","address2":"Port Washington","zip_code":"11050-1210","city":"New York","state_code":"NY","country_code":"USA","latitude":40.8587524,"longitude":-73.7258199,"geopoint":{"type":"Point","coordinates":[-73.7258199,40.8587524]}},{"name":"Jingle Networks","company_id":"52cdef7c4bab8bd675297daf","description":"","address1":"462 Broadway, Floor 6","address2":"","zip_code":"10013","city":"New York","state_code":"NY","country_code":"USA","latitude":40.720824,"longitude":-74.00007,"geopoint":{"type":"Point","coordinates":[-74.00007,40.720824]}},{"name":"Meetup","company_id":"52cdef7c4bab8bd675297db2","description":"New York","address1":"845 3rd Avenue","address2":"6th Floor, Suite 652","zip_code":"10022","city":"New York","state_code":"NY","country_code":"USA","latitude":40.7570972,"longitude":-73.969821,"geopoint":{"type":"Point","coordinates":[-73.969821,40.7570972]}},{"name":"NetRatings","company_id":"52cdef7c4bab8bd675297db4","description":"","address1":"160 Madison Avenue","address2":"6th Floor","zip_code":"10016","city":"New York","state_code":"NY","country_code":"USA","latitude":40.746883,"longitude":-73.983969,"geopoint":{"type":"Point","coordinates":[-73.983969,40.746883]}},{"name":"Mercora","company_id":"52cdef7c4bab8bd675297db3","description":"","address1":"265 Canal St. STE 601","address2":"","zip_code":"10013","city":"New York","state_code":"NY","country_code":"USA","latitude":40.718871,"longitude":-74.00118,"geopoint":{"type":"Point","coordinates":[-74.00118,40.718871]}},{"name":"LifeLock","company_id":"52cdef7c4bab8bd675297db5","description":"HQ","address1":"1156 6th Ave,","address2":"3rd Floor","zip_code":"10036","city":"New York","state_code":"NY","country_code":"USA","latitude":40.7566658,"longitude":-73.9827553,"geopoint":{"type":"Point","coordinates":[-73.9827553,40.7566658]}},{"name":"Wesabe","company_id":"52cdef7c4bab8bd675297db6","description":"","address1":"22 W 21st St","address2":"10th Floor","zip_code":"10010","city":"New York","state_code":"NY","country_code":"USA","latitude":40.743808,"longitude":-73.983626,"geopoint":{"type":"Point","coordinates":[-73.983626,40.743808]}},{"name":"Jangl SMS","company_id":"52cdef7c4bab8bd675297db7","description":"","address1":"360 East 72nd St #C3104","address2":"","zip_code":"10021","city":"New York","state_code":"NY","country_code":"USA","latitude":40.7680901,"longitude":-73.9566761,"geopoint":{"type":"Point","coordinates":[-73.9566761,40.7680901]}},{"name":"SmugMug","company_id":"52cdef7c4bab8bd675297db8","description":"","address1":"58 E 11th St.","address2":"3rd Flr.","zip_code":"10003","city":"New York","state_code":"NY","country_code":"USA","latitude":40.732748,"longitude":-73.992607,"geopoint":{"type":"Point","coordinates":[-73.992607,40.732748]}},{"name":"Prosper","company_id":"52cdef7c4bab8bd675297db9","description":"","address1":"49 West 27th Street","address2":"10th Fl. West","zip_code":"10023","city":"New York","state_code":"NY","country_code":"USA","latitude":34.016655,"longitude":-118.492358,"geopoint":{"type":"Point","coordinates":[-118.492358,34.016655]}},{"name":"Jajah","company_id":"52cdef7c4bab8bd675297dbb","description":"","address1":"84 Bay Ridge Ave","address2":"","zip_code":"11220","city":"Brooklyn","state_code":"NY","country_code":"USA","latitude":40.6378331,"longitude":-74.0327971,"geopoint":{"type":"Point","coordinates":[-74.0327971,40.6378331]}},{"name":"Skype","company_id":"52cdef7c4bab8bd675297dbc","description":"","address1":"257 Park Ave South","address2":"","zip_code":"10010","city":"New York","state_code":"NY","country_code":"USA","latitude":40.73906,"longitude":-73.990911,"geopoint":{"type":"Point","coordinates":[-73.990911,40.73906]}},{"name":"Yahoo!","company_id":"52cdef7c4bab8bd675297da3","description":"New York Office","address1":"33 West 17th St","address2":"Suite 903","zip_code":"10011","city":"New York","state_code":"NY","country_code":"USA","latitude":40.7387945,"longitude":-73.9939213,"geopoint":{"type":"Point","coordinates":[-73.9939213,40.7387945]}},{"name":"Stickam","company_id":"52cdef7c4bab8bd675297dbe","description":"New York","address1":"101 5th Ave","address2":"9th Floor","zip_code":"10003","city":"New York","state_code":"NY","country_code":"USA","latitude":40.737989,"longitude":-73.991764,"geopoint":{"type":"Point","coordinates":[-73.991764,40.737989]}},{"name":"blogTV","company_id":"52cdef7c4bab8bd675297dbf","description":"","address1":"45 West 25th Street","address2":"5th Floor","zip_code":"10011","city":"New York","state_code":"NY","country_code":"USA","latitude":40.7384997,"longitude":-73.9954585,"geopoint":{"type":"Point","coordinates":[-73.9954585,40.7384997]}},{"name":"Cisco","company_id":"52cdef7c4bab8bd675297da2","description":"Worldwide HQ","address1":"33 West 19th Street","address2":"Suite 329","zip_code":"10011","city":"New York","state_code":"NY","country_code":"USA","latitude":40.73993,"longitude":-73.9930489,"geopoint":{"type":"Point","coordinates":[-73.9930489,40.73993]}},{"name":"Livestream","company_id":"52cdef7c4bab8bd675297dc0","description":"HQ","address1":"111 8th Ave","address2":"7th Floor","zip_code":"10011","city":"New York","state_code":"NY","country_code":"USA","latitude":40.7410886,"longitude":-74.0015261,"geopoint":{"type":"Point","coordinates":[-74.0015261,40.7410886]}},{"name":"YouTube","company_id":"52cdef7c4bab8bd675297dbd","description":"","address1":"215 Lexington Avenue","address2":"","zip_code":"10016","city":"New York","state_code":"NY","country_code":"USA","latitude":40.761855,"longitude":-73.983754,"geopoint":{"type":"Point","coordinates":[-73.983754,40.761855]}},{"name":"AdaptiveBlue","company_id":"52cdef7c4bab8bd675297dc2","description":"New York Office","address1":"1230 Avenue of the Americas","address2":"","zip_code":"10020","city":"New York","state_code":"NY","country_code":"USA","latitude":40.758504,"longitude":-73.980068,"geopoint":{"type":"Point","coordinates":[-73.980068,40.758504]}},{"name":"Ustream","company_id":"52cdef7c4bab8bd675297dc1","description":"","address1":"401 1st Ave","address2":"Apt 7c","zip_code":"10010","city":"New York","state_code":"NY","country_code":"USA","latitude":40.737778,"longitude":-73.979508,"geopoint":{"type":"Point","coordinates":[-73.979508,40.737778]}},{"name":"Pando Networks","company_id":"52cdef7c4bab8bd675297dc3","description":"","address1":"10 West 18th Street","address2":"7th Floor","zip_code":"10011","city":"New York","state_code":"NY","country_code":"USA","latitude":53.478714,"longitude":-2.244824,"geopoint":{"type":"Point","coordinates":[-2.244824,53.478714]}},{"name":"Ikan","company_id":"52cdef7c4bab8bd675297dc6","description":"","address1":"228 Park Ave S # 25950","address2":"","zip_code":"10003","city":"New York","state_code":"NY","country_code":"USA","latitude":28.682042,"longitude":77.087502,"geopoint":{"type":"Point","coordinates":[77.087502,28.682042]}},{"name":"GrandCentral","company_id":"52cdef7c4bab8bd675297dc5","description":"Main Office","address1":"225 W. 36th Street","address2":"7th floor","zip_code":"10018","city":"New York","state_code":"NY","country_code":"USA","latitude":40.752898,"longitude":-73.990557,"geopoint":{"type":"Point","coordinates":[-73.990557,40.752898]}},{"name":"delicious","company_id":"52cdef7c4bab8bd675297dc7","description":"alaTest USA","address1":"175 Varick Street","address2":"","zip_code":"10014","city":"New York","state_code":"NY","country_code":"USA","latitude":40.727425,"longitude":-74.0057125,"geopoint":{"type":"Point","coordinates":[-74.0057125,40.727425]}},{"name":"Topix","company_id":"52cdef7c4bab8bd675297dc8","description":"","address1":"Dogpatch Labs","address2":"36 E 12th St, FL 2","zip_code":"10003","city":"New York","state_code":"NY","country_code":"USA","latitude":40.12791,"longitude":-88.170562,"geopoint":{"type":"Point","coordinates":[-88.170562,40.12791]}},{"name":"Pownce","company_id":"52cdef7c4bab8bd675297dca","description":"","address1":"172 Fifth Avenue","address2":"Suite 131","zip_code":"11215","city":"Brooklyn","state_code":"NY","country_code":"USA","latitude":40.66509,"longitude":-73.980306,"geopoint":{"type":"Point","coordinates":[-73.980306,40.66509]}},{"name":"Jobster","company_id":"52cdef7c4bab8bd675297dc9","description":"Corporate Headquarters","address1":"11 E. 36th St.","address2":"#705","zip_code":"10016","city":"New York","state_code":"NY","country_code":"USA","latitude":40.74963,"longitude":-73.982575,"geopoint":{"type":"Point","coordinates":[-73.982575,40.74963]}},{"name":"AllPeers","company_id":"52cdef7c4bab8bd675297dcc","description":"","address1":"156 Reade Street","address2":"","zip_code":"10013","city":"New York","state_code":"NY","country_code":"USA","latitude":40.716884,"longitude":-74.010355,"geopoint":{"type":"Point","coordinates":[-74.010355,40.716884]}},{"name":"CriticalMetrics","company_id":"52cdef7c4bab8bd675297dcd","description":"","address1":"125B Sully's Trail","address2":"","zip_code":"14526","city":"Pittsford","state_code":"NY","country_code":"USA","latitude":43.0594,"longitude":-77.467129,"geopoint":{"type":"Point","coordinates":[-77.467129,43.0594]}},{"name":"Revision3","company_id":"52cdef7c4bab8bd675297dcb","description":"","address1":"84 Wooster Street","address2":"Suite 301","zip_code":"10012","city":"New York","state_code":"NY","country_code":"USA","latitude":40.723839,"longitude":-74.0013669,"geopoint":{"type":"Point","coordinates":[-74.0013669,40.723839]}},{"name":"ZenZui","company_id":"52cdef7c4bab8bd675297dce","description":"","address1":"333 E. 79th St., #1W","address2":"","zip_code":"10075","city":"New York","state_code":"NY","country_code":"USA","latitude":40.7717776,"longitude":-73.9513502,"geopoint":{"type":"Point","coordinates":[-73.9513502,40.7717776]}},{"name":"Spock","company_id":"52cdef7c4bab8bd675297dcf","description":"","address1":"408\/1636 third avenue","address2":"","zip_code":"10128","city":"New York","state_code":"NY","country_code":"USA","latitude":40.7825212,"longitude":-73.9512806,"geopoint":{"type":"Point","coordinates":[-73.9512806,40.7825212]}},{"name":"Wize","company_id":"52cdef7c4bab8bd675297dd0","description":"HQ","address1":"11 Broadway","address2":"16th Floor","zip_code":"10004","city":"New York","state_code":"NY","country_code":"USA","latitude":40.740162,"longitude":-73.993367,"geopoint":{"type":"Point","coordinates":[-73.993367,40.740162]}},{"name":"CastTV","company_id":"52cdef7c4bab8bd675297dd2","description":"","address1":"45 Main Street","address2":"Suite 705","zip_code":"11201","city":"Brooklyn","state_code":"NY","country_code":"USA","latitude":40.704382,"longitude":-73.986572,"geopoint":{"type":"Point","coordinates":[-73.986572,40.704382]}},{"name":"iSkoot","company_id":"52cdef7c4bab8bd675297dd3","description":"","address1":"120 Walker St","address2":"FL 2","zip_code":"10013","city":"New York","state_code":"NY","country_code":"USA","latitude":42.275263,"longitude":-71.24762,"geopoint":{"type":"Point","coordinates":[-71.24762,42.275263]}},{"name":"SodaHead","company_id":"52cdef7c4bab8bd675297dd1","description":"New York Office","address1":"437 Madison Avenue, 28th Floor","address2":"","zip_code":"10022","city":"New York","state_code":"NY","country_code":"USA","latitude":40.757651,"longitude":-73.9752768,"geopoint":{"type":"Point","coordinates":[-73.9752768,40.757651]}},{"name":"AllofMP3","company_id":"52cdef7c4bab8bd675297dd5","description":"","address1":"41 East 11th Street","address2":"","zip_code":"10003","city":"New York","state_code":"NY","country_code":"USA","latitude":40.733276,"longitude":-73.9932793,"geopoint":{"type":"Point","coordinates":[-73.9932793,40.733276]}},{"name":"EQO","company_id":"52cdef7c4bab8bd675297dd4","description":"HealthiNation","address1":"35 East 21st Street","address2":"Suite 6E","zip_code":"10010","city":"New York","state_code":"NY","country_code":"USA","latitude":40.739341,"longitude":-73.988357,"geopoint":{"type":"Point","coordinates":[-73.988357,40.739341]}},{"name":"SellABand","company_id":"52cdef7c4bab8bd675297dd7","description":"Marvel Entertainment Inc","address1":"417 5th. Avenue","address2":"","zip_code":"10016","city":"New York","state_code":"NY","country_code":"USA","latitude":40.750576,"longitude":-73.982713,"geopoint":{"type":"Point","coordinates":[-73.982713,40.750576]}},{"name":"There","company_id":"52cdef7c4bab8bd675297dd6","description":"Corporate Headquarters","address1":"594 Broadway","address2":"Suite 206","zip_code":"10012","city":"New York","state_code":"NY","country_code":"USA","latitude":40.725043,"longitude":-73.997076,"geopoint":{"type":"Point","coordinates":[-73.997076,40.725043]}},{"name":"Steorn","company_id":"52cdef7c4bab8bd675297dd9","description":"","address1":"508 BROADWAY NO.5","address2":"","zip_code":"10012","city":"New York","state_code":"NY","country_code":"USA","latitude":40.722266,"longitude":-73.999044,"geopoint":{"type":"Point","coordinates":[-73.999044,40.722266]}},{"name":"iContact","company_id":"52cdef7c4bab8bd675297dda","description":"New York","address1":"119 W. 23rd St","address2":"Suite 508","zip_code":"10011","city":"New York","state_code":"NY","country_code":"USA","latitude":40.743563,"longitude":-73.993274,"geopoint":{"type":"Point","coordinates":[-73.993274,40.743563]}},{"name":"Funny Or Die","company_id":"52cdef7c4bab8bd675297dd8","description":"Main Office","address1":"500 East 77th Street","address2":"Suite 1405","zip_code":"","city":"New York","state_code":"NY","country_code":"USA","latitude":40.769466,"longitude":-73.950845,"geopoint":{"type":"Point","coordinates":[-73.950845,40.769466]}},{"name":"MeeVee","company_id":"52cdef7c4bab8bd675297ddb","description":"Headquarters (NYC)","address1":"1441 Broadway","address2":"18th Floor","zip_code":"10018","city":"New York","state_code":"NY","country_code":"USA","latitude":40.7550708,"longitude":-73.9869523,"geopoint":{"type":"Point","coordinates":[-73.9869523,40.7550708]}},{"name":"blinkx","company_id":"52cdef7c4bab8bd675297ddc","description":"World Headquarters","address1":"230 W 41st street","address2":"14th Floor","zip_code":"10036","city":"New York","state_code":"NY","country_code":"USA","latitude":40.754211,"longitude":-73.97917,"geopoint":{"type":"Point","coordinates":[-73.97917,40.754211]}},{"name":"ClipBlast!","company_id":"52cdef7c4bab8bd675297dde","description":"HeadQuarters","address1":"97 North Tenth Street","address2":"Suite 204","zip_code":"11211","city":"Brooklyn","state_code":"NY","country_code":"USA","latitude":40.720764,"longitude":-73.957968,"geopoint":{"type":"Point","coordinates":[-73.957968,40.720764]}},{"name":"Mashery","company_id":"52cdef7c4bab8bd675297ddd","description":"","address1":"39 W 14th St","address2":"Ste 502","zip_code":"10011-7403","city":"New York","state_code":"NY","country_code":"USA","latitude":40.7368158,"longitude":-73.9955426,"geopoint":{"type":"Point","coordinates":[-73.9955426,40.7368158]}},{"name":"Zlio","company_id":"52cdef7c4bab8bd675297ddf","description":"My Damn Channel, Inc.","address1":"202 W. 40th St.","address2":"16th Floor","zip_code":"10018","city":"New York","state_code":"NY","country_code":"USA","latitude":40.754762,"longitude":-73.988543,"geopoint":{"type":"Point","coordinates":[-73.988543,40.754762]}},{"name":"Jaiku","company_id":"52cdef7c4bab8bd675297de1","description":"Corporate Headquarters","address1":"215 Park Avenue South","address2":"Suite 1300","zip_code":"10003","city":"New York","state_code":"NY","country_code":"USA","latitude":40.736796,"longitude":-73.988339,"geopoint":{"type":"Point","coordinates":[-73.988339,40.736796]}},{"name":"Tun3r","company_id":"52cdef7c4bab8bd675297de2","description":"","address1":"","address2":"","zip_code":"","city":"","state_code":"NY","country_code":"USA","latitude":40.75604,"longitude":-73.986941,"geopoint":{"type":"Point","coordinates":[-73.986941,40.75604]}},{"name":"Spotplex","company_id":"52cdef7c4bab8bd675297de3","description":"","address1":"143 Varick Street","address2":"","zip_code":"10013","city":"New York","state_code":"NY","country_code":"USA","latitude":40.72616,"longitude":-74.006023,"geopoint":{"type":"Point","coordinates":[-74.006023,40.72616]}},{"name":"Intel","company_id":"52cdef7c4bab8bd675297dc4","description":"GEN247 LLC","address1":"Bayard Studios","address2":"98 Bayard St","zip_code":"11222","city":"Brooklyn","state_code":"NY","country_code":"USA","latitude":40.727434,"longitude":-73.9447994,"geopoint":{"type":"Point","coordinates":[-73.9447994,40.727434]}},{"name":"TripUp","company_id":"52cdef7c4bab8bd675297de5","description":"","address1":"","address2":"","zip_code":"","city":"New York","state_code":"NY","country_code":"USA","latitude":40.74034,"longitude":-74.00721,"geopoint":{"type":"Point","coordinates":[-74.00721,40.74034]}},{"name":"Yelp","company_id":"52cdef7c4bab8bd675297de0","description":"New York Office","address1":"110 West 40th Street","address2":"Suite 604","zip_code":"10018","city":"New York","state_code":"NY","country_code":"USA","latitude":40.753652,"longitude":-73.98594,"geopoint":{"type":"Point","coordinates":[-73.98594,40.753652]}},{"name":"Fleck","company_id":"52cdef7c4bab8bd675297de7","description":"New York Office","address1":"770 Broadway","address2":"2nd Floor, Suite 218","zip_code":"10003","city":"New York","state_code":"NY","country_code":"USA","latitude":40.731118,"longitude":-73.991933,"geopoint":{"type":"Point","coordinates":[-73.991933,40.731118]}},{"name":"Coghead","company_id":"52cdef7c4bab8bd675297de8","description":"New York Office","address1":"31 Howard Street","address2":"4th Floor","zip_code":"10013","city":"New York","state_code":"NY","country_code":"USA","latitude":40.719609,"longitude":-74.000754,"geopoint":{"type":"Point","coordinates":[-74.000754,40.719609]}},{"name":"Zamzar","company_id":"52cdef7c4bab8bd675297de9","description":"","address1":"615 E 6th St","address2":"","zip_code":"10009","city":"New York","state_code":"NY","country_code":"USA","latitude":40.724289,"longitude":-73.980587,"geopoint":{"type":"Point","coordinates":[-73.980587,40.724289]}},{"name":"Wakoopa","company_id":"52cdef7c4bab8bd675297de6","description":"","address1":"75 Varick Street","address2":"","zip_code":"10013","city":"New York","state_code":"NY","country_code":"USA","latitude":40.72276,"longitude":-74.006272,"geopoint":{"type":"Point","coordinates":[-74.006272,40.72276]}},{"name":"Zooomr","company_id":"52cdef7c4bab8bd675297dea","description":"New York Office","address1":"345 Park Avenue","address2":"17th Floor","zip_code":"10154-0037","city":"New York","state_code":"NY","country_code":"USA","latitude":40.757716,"longitude":-73.972321,"geopoint":{"type":"Point","coordinates":[-73.972321,40.757716]}},{"name":"Yapta","company_id":"52cdef7c4bab8bd675297de4","description":"Headquarters","address1":"86 Monitor Street","address2":"Suite 1B","zip_code":"11222","city":"Brooklyn","state_code":"NY","country_code":"USA","latitude":40.779947,"longitude":-73.953502,"geopoint":{"type":"Point","coordinates":[-73.953502,40.779947]}},{"name":"Farecast","company_id":"52cdef7c4bab8bd675297ded","description":"Headquarters","address1":"61 Jane Street","address2":"","zip_code":"10014","city":"New York","state_code":"NY","country_code":"USA","latitude":40.738137,"longitude":-74.0058,"geopoint":{"type":"Point","coordinates":[-74.0058,40.738137]}},{"name":"SideStep","company_id":"52cdef7c4bab8bd675297deb","description":"Zagat Survey, LLC","address1":"4 Columbus Circle","address2":"","zip_code":"10019","city":"New York City","state_code":"NY","country_code":"USA","latitude":40.76769,"longitude":-73.982558,"geopoint":{"type":"Point","coordinates":[-73.982558,40.76769]}},{"name":"coRank","company_id":"52cdef7c4bab8bd675297dec","description":"","address1":"54 West 21st. Street...","address2":"","zip_code":"10010","city":"New York","state_code":"NY","country_code":"USA","latitude":40.741179,"longitude":-73.993182,"geopoint":{"type":"Point","coordinates":[-73.993182,40.741179]}},{"name":"Dailymotion","company_id":"52cdef7c4bab8bd675297dee","description":"","address1":"PO Box 1677","address2":"Morningside Station","zip_code":"10026","city":"New York","state_code":"NY","country_code":"USA","latitude":40.80405,"longitude":-73.952833,"geopoint":{"type":"Point","coordinates":[-73.952833,40.80405]}},{"name":"KickApps","company_id":"52cdef7c4bab8bd675297def","description":"","address1":"590 Madison Avenue","address2":"37th Floor","zip_code":"10022","city":"New York","state_code":"NY","country_code":"USA","latitude":40.762251,"longitude":-73.9723688,"geopoint":{"type":"Point","coordinates":[-73.9723688,40.762251]}},{"name":"ConVerdge","company_id":"52cdef7c4bab8bd675297df1","description":"Corporate Office","address1":"915 Broadway","address2":"Suite 1210","zip_code":"10010","city":"New York","state_code":"NY","country_code":"USA","latitude":40.739867,"longitude":-73.990024,"geopoint":{"type":"Point","coordinates":[-73.990024,40.739867]}},{"name":"Instructables","company_id":"52cdef7c4bab8bd675297df3","description":"","address1":"125 Noble St","address2":"Suite 2","zip_code":"11222","city":"Brooklyn","state_code":"NY","country_code":"USA","latitude":40.7286261,"longitude":-73.9555369,"geopoint":{"type":"Point","coordinates":[-73.9555369,40.7286261]}},{"name":"Netvibes","company_id":"52cdef7c4bab8bd675297df4","description":"","address1":"37 East 28th Street","address2":"Suite 201","zip_code":"10016","city":"New York","state_code":"NY","country_code":"USA","latitude":40.74385,"longitude":-73.98458,"geopoint":{"type":"Point","coordinates":[-73.98458,40.74385]}},{"name":"Swivel","company_id":"52cdef7c4bab8bd675297df5","description":"NYC","address1":"175 Varick St.","address2":"Suite 523","zip_code":"10014","city":"New York City","state_code":"NY","country_code":"USA","latitude":40.7272544,"longitude":-74.0057152,"geopoint":{"type":"Point","coordinates":[-74.0057152,40.7272544]}},{"name":"RockYou","company_id":"52cdef7c4bab8bd675297df0","description":"","address1":"17 W 18th St","address2":"8th Floor","zip_code":"10011","city":"New York","state_code":"NY","country_code":"USA","latitude":40.740441,"longitude":-73.993376,"geopoint":{"type":"Point","coordinates":[-73.993376,40.740441]}},{"name":"Pageflakes","company_id":"52cdef7c4bab8bd675297df2","description":"Pond5","address1":"155 Water Street","address2":"Floor 6","zip_code":"11201","city":"Brooklyn","state_code":"NY","country_code":"USA","latitude":40.7032884,"longitude":-73.9878525,"geopoint":{"type":"Point","coordinates":[-73.9878525,40.7032884]}},{"name":"Slide","company_id":"52cdef7c4bab8bd675297df6","description":"Pond5","address1":"419 Lafayette Street","address2":"Floor 2","zip_code":"10003","city":"New York","state_code":"NY","country_code":"USA","latitude":40.7280992,"longitude":-73.9933841,"geopoint":{"type":"Point","coordinates":[-73.9933841,40.7280992]}},{"name":"Flickr","company_id":"52cdef7c4bab8bd675297df8","description":"USA","address1":"","address2":"","zip_code":"","city":"","state_code":"NY","country_code":"USA","latitude":40.756054,"longitude":-73.986951,"geopoint":{"type":"Point","coordinates":[-73.986951,40.756054]}},{"name":"BabyCenter","company_id":"52cdef7c4bab8bd675297df9","description":"Headquarters","address1":"P.O. Box 644","address2":"","zip_code":"11756","city":"Levittown","state_code":"NY","country_code":"USA","latitude":40.72267,"longitude":-73.518183,"geopoint":{"type":"Point","coordinates":[-73.518183,40.72267]}},{"name":"Bebo","company_id":"52cdef7c4bab8bd675297df7","description":"New York Office","address1":"","address2":"","zip_code":"10031","city":"","state_code":"NY","country_code":"USA","latitude":40.822087,"longitude":-73.950677,"geopoint":{"type":"Point","coordinates":[-73.950677,40.822087]}},{"name":"WeFi","company_id":"52cdef7c4bab8bd675297dfb","description":"","address1":"181 N. 11th Street, Suite 307","address2":"","zip_code":"11211","city":"New York City","state_code":"NY","country_code":"USA","latitude":40.719436,"longitude":-73.954391,"geopoint":{"type":"Point","coordinates":[-73.954391,40.719436]}},{"name":"TripHub","company_id":"52cdef7c4bab8bd675297dfc","description":"NY Office","address1":"33 wyckoff place","address2":"","zip_code":"11598","city":"Woodmere","state_code":"NY","country_code":"USA","latitude":40.629181,"longitude":-73.712064,"geopoint":{"type":"Point","coordinates":[-73.712064,40.629181]}},{"name":"CrowdVine","company_id":"52cdef7c4bab8bd675297dfd","description":"Mailing Address","address1":"355 E. 72nd St., Suite 4E","address2":"","zip_code":"10021","city":"New York","state_code":"NY","country_code":"USA","latitude":40.768058,"longitude":-73.956599,"geopoint":{"type":"Point","coordinates":[-73.956599,40.768058]}},{"name":"PlaceBlogger","company_id":"52cdef7c4bab8bd675297dfa","description":"Corporate Headquarters","address1":"153 Roebling St.","address2":"","zip_code":"11211","city":"Brooklyn","state_code":"NY","country_code":"USA","latitude":40.714056,"longitude":-73.957854,"geopoint":{"type":"Point","coordinates":[-73.957854,40.714056]}},{"name":"FeedBurner","company_id":"52cdef7c4bab8bd675297dfe","description":"New York","address1":"305 West Broadway, Suite 187","address2":"","zip_code":"10013","city":"New York","state_code":"NY","country_code":"USA","latitude":40.721583,"longitude":-74.004441,"geopoint":{"type":"Point","coordinates":[-74.004441,40.721583]}},{"name":"TVtrip","company_id":"52cdef7c4bab8bd675297e00","description":"Sales and Biz Dev Office","address1":"245 West 17th St.","address2":"4th Fl.","zip_code":"10011","city":"New York","state_code":"NY","country_code":"USA","latitude":40.741441,"longitude":-73.999675,"geopoint":{"type":"Point","coordinates":[-73.999675,40.741441]}},{"name":"TheFind","company_id":"52cdef7c4bab8bd675297dff","description":"East Coast","address1":"16 West 23rd","address2":"Floor 4","zip_code":"10010","city":"New York","state_code":"NY","country_code":"USA","latitude":40.741594,"longitude":-73.990468,"geopoint":{"type":"Point","coordinates":[-73.990468,40.741594]}},{"name":"Dogster","company_id":"52cdef7c4bab8bd675297e02","description":"Office","address1":"360 West 34th Street","address2":"9E","zip_code":"10001","city":"New York","state_code":"NY","country_code":"USA","latitude":40.753207,"longitude":-73.995886,"geopoint":{"type":"Point","coordinates":[-73.995886,40.753207]}},{"name":"Zazzle","company_id":"52cdef7c4bab8bd675297e01","description":"Corporate Office","address1":"915 Broadway","address2":"Suite 1210","zip_code":"10010","city":"New York","state_code":"NY","country_code":"USA","latitude":40.739867,"longitude":-73.990024,"geopoint":{"type":"Point","coordinates":[-73.990024,40.739867]}},{"name":"CornerWorld","company_id":"52cdef7c4bab8bd675297e05","description":"","address1":"125 Noble St","address2":"Suite 2","zip_code":"11222","city":"Brooklyn","state_code":"NY","country_code":"USA","latitude":40.7286261,"longitude":-73.9555369,"geopoint":{"type":"Point","coordinates":[-73.9555369,40.7286261]}},{"name":"Sway","company_id":"52cdef7c4bab8bd675297e04","description":"","address1":"37 East 28th Street","address2":"Suite 201","zip_code":"10016","city":"New York","state_code":"NY","country_code":"USA","latitude":40.74385,"longitude":-73.98458,"geopoint":{"type":"Point","coordinates":[-73.98458,40.74385]}},{"name":"WatZatSong","company_id":"52cdef7c4bab8bd675297e07","description":"NYC","address1":"175 Varick St.","address2":"Suite 523","zip_code":"10014","city":"New York City","state_code":"NY","country_code":"USA","latitude":40.7272544,"longitude":-74.0057152,"geopoint":{"type":"Point","coordinates":[-74.0057152,40.7272544]}},{"name":"Loomia","company_id":"52cdef7c4bab8bd675297e08","description":"","address1":"17 W 18th St","address2":"8th Floor","zip_code":"10011","city":"New York","state_code":"NY","country_code":"USA","latitude":40.740441,"longitude":-73.993376,"geopoint":{"type":"Point","coordinates":[-73.993376,40.740441]}},{"name":"adBrite","company_id":"52cdef7c4bab8bd675297e06","description":"Pond5","address1":"155 Water Street","address2":"Floor 6","zip_code":"11201","city":"Brooklyn","state_code":"NY","country_code":"USA","latitude":40.7032884,"longitude":-73.9878525,"geopoint":{"type":"Point","coordinates":[-73.9878525,40.7032884]}},{"name":"PBworks","company_id":"52cdef7c4bab8bd675297e03","description":"Pond5","address1":"419 Lafayette Street","address2":"Floor 2","zip_code":"10003","city":"New York","state_code":"NY","country_code":"USA","latitude":40.7280992,"longitude":-73.9933841,"geopoint":{"type":"Point","coordinates":[-73.9933841,40.7280992]}},{"name":"Meebo","company_id":"52cdef7c4bab8bd675297e09","description":"USA","address1":"","address2":"","zip_code":"","city":"","state_code":"NY","country_code":"USA","latitude":40.756054,"longitude":-73.986951,"geopoint":{"type":"Point","coordinates":[-73.986951,40.756054]}},{"name":"Newsvine","company_id":"52cdef7c4bab8bd675297e0b","description":"Headquarters","address1":"P.O. Box 644","address2":"","zip_code":"11756","city":"Levittown","state_code":"NY","country_code":"USA","latitude":40.72267,"longitude":-73.518183,"geopoint":{"type":"Point","coordinates":[-73.518183,40.72267]}},{"name":"FlickIM","company_id":"52cdef7c4bab8bd675297e0d","description":"New York Office","address1":"","address2":"","zip_code":"10031","city":"","state_code":"NY","country_code":"USA","latitude":40.822087,"longitude":-73.950677,"geopoint":{"type":"Point","coordinates":[-73.950677,40.822087]}},{"name":"Eventbrite","company_id":"52cdef7c4bab8bd675297e0a","description":"","address1":"181 N. 11th Street, Suite 307","address2":"","zip_code":"11211","city":"New York City","state_code":"NY","country_code":"USA","latitude":40.719436,"longitude":-73.954391,"geopoint":{"type":"Point","coordinates":[-73.954391,40.719436]}},{"name":"Jamendo","company_id":"52cdef7c4bab8bd675297e0e","description":"NY Office","address1":"33 wyckoff place","address2":"","zip_code":"11598","city":"Woodmere","state_code":"NY","country_code":"USA","latitude":40.629181,"longitude":-73.712064,"geopoint":{"type":"Point","coordinates":[-73.712064,40.629181]}},{"name":"Terabitz","company_id":"52cdef7c4bab8bd675297e0f","description":"Mailing Address","address1":"355 E. 72nd St., Suite 4E","address2":"","zip_code":"10021","city":"New York","state_code":"NY","country_code":"USA","latitude":40.768058,"longitude":-73.956599,"geopoint":{"type":"Point","coordinates":[-73.956599,40.768058]}},{"name":"iLike","company_id":"52cdef7c4bab8bd675297e11","description":"Corporate Headquarters","address1":"153 Roebling St.","address2":"","zip_code":"11211","city":"Brooklyn","state_code":"NY","country_code":"USA","latitude":40.714056,"longitude":-73.957854,"geopoint":{"type":"Point","coordinates":[-73.957854,40.714056]}},{"name":"LinkedIn","company_id":"52cdef7c4bab8bd675297e0c","description":"New York","address1":"305 West Broadway, Suite 187","address2":"","zip_code":"10013","city":"New York","state_code":"NY","country_code":"USA","latitude":40.721583,"longitude":-74.004441,"geopoint":{"type":"Point","coordinates":[-74.004441,40.721583]}},{"name":"Cuts","company_id":"52cdef7c4bab8bd675297e13","description":"Sales and Biz Dev Office","address1":"245 West 17th St.","address2":"4th Fl.","zip_code":"10011","city":"New York","state_code":"NY","country_code":"USA","latitude":40.741441,"longitude":-73.999675,"geopoint":{"type":"Point","coordinates":[-73.999675,40.741441]}},{"name":"Ticketmaster","company_id":"52cdef7c4bab8bd675297e12","description":"East Coast","address1":"16 West 23rd","address2":"Floor 4","zip_code":"10010","city":"New York","state_code":"NY","country_code":"USA","latitude":40.741594,"longitude":-73.990468,"geopoint":{"type":"Point","coordinates":[-73.990468,40.741594]}},{"name":"Box","company_id":"52cdef7c4bab8bd675297e10","description":"Office","address1":"360 West 34th Street","address2":"9E","zip_code":"10001","city":"New York","state_code":"NY","country_code":"USA","latitude":40.753207,"longitude":-73.995886,"geopoint":{"type":"Point","coordinates":[-73.995886,40.753207]}},{"name":"Edgeio","company_id":"52cdef7c4bab8bd675297e16","description":"Headquarters","address1":"667 Madison Avenue","address2":"","zip_code":"10065","city":"New York","state_code":"NY","country_code":"USA","latitude":40.764481,"longitude":-73.970266,"geopoint":{"type":"Point","coordinates":[-73.970266,40.764481]}},{"name":"Carbonite","company_id":"52cdef7c4bab8bd675297e14","description":"","address1":"","address2":"","zip_code":"11218","city":"","state_code":"NY","country_code":"USA","latitude":40.642591,"longitude":-73.974187,"geopoint":{"type":"Point","coordinates":[-73.974187,40.642591]}},{"name":"Kaboodle","company_id":"52cdef7c4bab8bd675297e17","description":"Bloglovin' US","address1":"416 W 13th St","address2":"Suite 203","zip_code":"10014","city":"New York","state_code":"NY","country_code":"USA","latitude":40.740308,"longitude":-74.007199,"geopoint":{"type":"Point","coordinates":[-74.007199,40.740308]}},{"name":"Conduit","company_id":"52cdef7c4bab8bd675297e15","description":"North America HQ","address1":"","address2":"","zip_code":"","city":"New York","state_code":"NY","country_code":"USA","latitude":40.756054,"longitude":-73.986951,"geopoint":{"type":"Point","coordinates":[-73.986951,40.756054]}},{"name":"Google","company_id":"52cdef7c4bab8bd675297dba","description":"","address1":"330 W 38th Street","address2":"Suite 1602","zip_code":"10018","city":"New York","state_code":"NY","country_code":"USA","latitude":40.755243,"longitude":-73.9935,"geopoint":{"type":"Point","coordinates":[-73.9935,40.755243]}},{"name":"GigaOM","company_id":"52cdef7c4bab8bd675297e18","description":"HQ","address1":"22 West 27th Street","address2":"6th Floor","zip_code":"10001","city":"New York","state_code":"NY","country_code":"USA","latitude":40.744594,"longitude":-73.989698,"geopoint":{"type":"Point","coordinates":[-73.989698,40.744594]}},{"name":"Go2Web20","company_id":"52cdef7c4bab8bd675297e1b","description":"","address1":"60 E 9th St","address2":"","zip_code":"10003","city":"New York","state_code":"NY","country_code":"USA","latitude":40.731085,"longitude":-73.992633,"geopoint":{"type":"Point","coordinates":[-73.992633,40.731085]}},{"name":"Wink","company_id":"52cdef7c4bab8bd675297e1a","description":"","address1":"134 West 29th Street","address2":"Suite 906","zip_code":"10001","city":"New York","state_code":"NY","country_code":"USA","latitude":40.76945,"longitude":-73.951865,"geopoint":{"type":"Point","coordinates":[-73.951865,40.76945]}},{"name":"coComment","company_id":"52cdef7c4bab8bd675297e1c","description":"aCerno New York","address1":"122 E. 42nd st,","address2":"suite 805","zip_code":"10168","city":"New York","state_code":"NY","country_code":"USA","latitude":40.751363,"longitude":-73.975857,"geopoint":{"type":"Point","coordinates":[-73.975857,40.751363]}},{"name":"Redfin","company_id":"52cdef7c4bab8bd675297e19","description":"","address1":"185 Madison Ave","address2":"Suite 1602","zip_code":"10016","city":"New York","state_code":"NY","country_code":"USA","latitude":40.747819,"longitude":-73.982544,"geopoint":{"type":"Point","coordinates":[-73.982544,40.747819]}},{"name":"Seesmic","company_id":"52cdef7c4bab8bd675297e1d","description":"","address1":"86 Chambers Street","address2":"Suite 704","zip_code":"10007","city":"New York","state_code":"NY","country_code":"USA","latitude":40.707268,"longitude":-74.001724,"geopoint":{"type":"Point","coordinates":[-74.001724,40.707268]}},{"name":"Hotelicopter","company_id":"52cdef7c4bab8bd675297e1f","description":"HQ","address1":"3 W 18th","address2":"2nd Floor","zip_code":"10011","city":"New York","state_code":"NY","country_code":"USA","latitude":40.744618,"longitude":-73.987764,"geopoint":{"type":"Point","coordinates":[-73.987764,40.744618]}},{"name":"MotionDSP","company_id":"52cdef7c4bab8bd675297e21","description":"Corporate HQ","address1":"261 Fifth Avenue","address2":"8th Floor","zip_code":"10016","city":"New York","state_code":"NY","country_code":"USA","latitude":40.7451545,"longitude":-73.9869549,"geopoint":{"type":"Point","coordinates":[-73.9869549,40.7451545]}},{"name":"Techmeme","company_id":"52cdef7c4bab8bd675297e22","description":"New York Headquarters","address1":"964 Flushing Ave","address2":"First Floor","zip_code":"11206","city":"Brooklyn","state_code":"NY","country_code":"USA","latitude":40.740672,"longitude":-73.992632,"geopoint":{"type":"Point","coordinates":[-73.992632,40.740672]}},{"name":"Zvents","company_id":"52cdef7c4bab8bd675297e20","description":"","address1":"500 Fifth Avenue","address2":"12th Floor","zip_code":"10110","city":"New York","state_code":"NY","country_code":"USA","latitude":40.753918,"longitude":-73.981237,"geopoint":{"type":"Point","coordinates":[-73.981237,40.753918]}},{"name":"Eventful","company_id":"52cdef7c4bab8bd675297e23","description":"New York Office","address1":"231 W 29th street","address2":"","zip_code":"10001","city":"New York","state_code":"NY","country_code":"USA","latitude":40.748634,"longitude":-73.994203,"geopoint":{"type":"Point","coordinates":[-73.994203,40.748634]}},{"name":"RegOnline","company_id":"52cdef7c4bab8bd675297e24","description":"NY","address1":"81 Worth Street","address2":"","zip_code":"10013","city":"New York","state_code":"NY","country_code":"USA","latitude":40.7166822,"longitude":-74.005398,"geopoint":{"type":"Point","coordinates":[-74.005398,40.7166822]}},{"name":"Simply Hired","company_id":"52cdef7c4bab8bd675297e27","description":"","address1":"PO Box 4668 #9550","address2":"","zip_code":"10163","city":"New York","state_code":"NY","country_code":"USA","latitude":40.750567,"longitude":-73.968145,"geopoint":{"type":"Point","coordinates":[-73.968145,40.750567]}},{"name":"oDesk","company_id":"52cdef7c4bab8bd675297e26","description":"World Headquarters","address1":"187 Lafayette St.","address2":"4th Floor","zip_code":"10013","city":"New York","state_code":"NY","country_code":"USA","latitude":40.74727,"longitude":-73.9800645,"geopoint":{"type":"Point","coordinates":[-73.9800645,40.74727]}},{"name":"Oodle","company_id":"52cdef7c4bab8bd675297e25","description":"ABC News","address1":"77 W. 66 St.","address2":"","zip_code":"10023","city":"New York","state_code":"NY","country_code":"USA","latitude":40.77353,"longitude":-73.980533,"geopoint":{"type":"Point","coordinates":[-73.980533,40.77353]}},{"name":"Cofoundr","company_id":"52cdef7c4bab8bd675297e2a","description":"","address1":"75 9th Ave","address2":"","zip_code":"10011","city":"New York","state_code":"NY","country_code":"USA","latitude":40.7418877,"longitude":-74.0047466,"geopoint":{"type":"Point","coordinates":[-74.0047466,40.7418877]}},{"name":"ooma","company_id":"52cdef7c4bab8bd675297e28","description":"Headquarters","address1":"","address2":"","zip_code":"","city":"New York","state_code":"NY","country_code":"USA","latitude":40.756054,"longitude":-73.986951,"geopoint":{"type":"Point","coordinates":[-73.986951,40.756054]}},{"name":"Ujogo","company_id":"52cdef7c4bab8bd675297e2b","description":"","address1":"55 Washington Street","address2":"Suite 457","zip_code":"11201","city":"Brooklyn","state_code":"NY","country_code":"USA","latitude":40.702692,"longitude":-73.989613,"geopoint":{"type":"Point","coordinates":[-73.989613,40.702692]}},{"name":"Scripps Networks Interactive","company_id":"52cdef7c4bab8bd675297e29","description":"","address1":"575 Madison Avenue","address2":"Suite 1006","zip_code":"10022-2511","city":"New York","state_code":"NY","country_code":"USA","latitude":40.7619759,"longitude":-73.9725773,"geopoint":{"type":"Point","coordinates":[-73.9725773,40.7619759]}},{"name":"TechnologyGuide","company_id":"52cdef7c4bab8bd675297e1e","description":"","address1":"915 Broadway,","address2":"20th Floor","zip_code":"10010","city":"New York","state_code":"NY","country_code":"USA","latitude":40.739867,"longitude":-73.990024,"geopoint":{"type":"Point","coordinates":[-73.990024,40.739867]}},{"name":"Recipezaar","company_id":"52cdef7c4bab8bd675297e2c","description":"","address1":"","address2":"","zip_code":"","city":"New York","state_code":"NY","country_code":"USA","latitude":40.756054,"longitude":-73.986951,"geopoint":{"type":"Point","coordinates":[-73.986951,40.756054]}},{"name":"stylediary","company_id":"52cdef7c4bab8bd675297e2e","description":"Office","address1":"747 3rd Ave","address2":"30th Floor","zip_code":"10017","city":"New York City","state_code":"NY","country_code":"USA","latitude":40.7534549,"longitude":-73.9724886,"geopoint":{"type":"Point","coordinates":[-73.9724886,40.7534549]}},{"name":"Gumiyo","company_id":"52cdef7c4bab8bd675297e2d","description":"HQ","address1":"594 Broadway, Suite 906","address2":"","zip_code":"10012","city":"New York","state_code":"NY","country_code":"USA","latitude":40.7250495,"longitude":-73.9970912,"geopoint":{"type":"Point","coordinates":[-73.9970912,40.7250495]}},{"name":"ictv","company_id":"52cdef7c4bab8bd675297e2f","description":"New York Office","address1":"622 Third Ave","address2":"11th Floor","zip_code":"10017","city":"NYC","state_code":"NY","country_code":"USA","latitude":40.750179,"longitude":-73.976018,"geopoint":{"type":"Point","coordinates":[-73.976018,40.750179]}},{"name":"GoingOn","company_id":"52cdef7c4bab8bd675297e30","description":"New York, NY","address1":"258 W. 71 Street","address2":"Ste. 1A","zip_code":"10023","city":"New York","state_code":"NY","country_code":"USA","latitude":40.778635,"longitude":-73.984438,"geopoint":{"type":"Point","coordinates":[-73.984438,40.778635]}},{"name":"Flixster","company_id":"52cdef7c4bab8bd675297e31","description":"New York City","address1":"601 W. 57th Street","address2":"","zip_code":"10019","city":"New York City","state_code":"NY","country_code":"USA","latitude":40.7703479,"longitude":-73.9914834,"geopoint":{"type":"Point","coordinates":[-73.9914834,40.7703479]}},{"name":"MyPublicInfo","company_id":"52cdef7c4bab8bd675297e33","description":"","address1":"41 Union Square West,","address2":"Suite 808","zip_code":"10003","city":"New York","state_code":"NY","country_code":"USA","latitude":40.737216,"longitude":-73.990947,"geopoint":{"type":"Point","coordinates":[-73.990947,40.737216]}},{"name":"revlayer","company_id":"52cdef7c4bab8bd675297e36","description":"","address1":"","address2":"","zip_code":"","city":"New York","state_code":"NY","country_code":"USA","latitude":40.756054,"longitude":-73.986951,"geopoint":{"type":"Point","coordinates":[-73.986951,40.756054]}},{"name":"Vast","company_id":"52cdef7c4bab8bd675297e32","description":"New York Office","address1":"","address2":"","zip_code":"11235","city":"New York","state_code":"NY","country_code":"USA","latitude":40.5889016,"longitude":-73.9447994,"geopoint":{"type":"Point","coordinates":[-73.9447994,40.5889016]}},{"name":"Checkster","company_id":"52cdef7c4bab8bd675297e35","description":"Headquarters","address1":"333 Hudson St","address2":"Suite 403","zip_code":"10013","city":"New York","state_code":"NY","country_code":"USA","latitude":40.727107,"longitude":-74.007655,"geopoint":{"type":"Point","coordinates":[-74.007655,40.727107]}},{"name":"Cyworld","company_id":"52cdef7c4bab8bd675297e37","description":"","address1":"670 Broadway","address2":"2nd Floor","zip_code":"10012","city":"New York","state_code":"NY","country_code":"USA","latitude":40.727216,"longitude":-73.994797,"geopoint":{"type":"Point","coordinates":[-73.994797,40.727216]}},{"name":"Piczo","company_id":"52cdef7c4bab8bd675297e34","description":"Office","address1":"220 Elderwood Ave","address2":"","zip_code":"10803","city":"Pelham","state_code":"NY","country_code":"USA","latitude":40.904885,"longitude":-73.801901,"geopoint":{"type":"Point","coordinates":[-73.801901,40.904885]}},{"name":"Spreadshirt","company_id":"52cdef7c4bab8bd675297e3a","description":"General Assembly","address1":"902 Broadway","address2":"4th Floor","zip_code":"10010","city":"New York","state_code":"NY","country_code":"USA","latitude":40.7421061,"longitude":-73.9909181,"geopoint":{"type":"Point","coordinates":[-73.9909181,40.7421061]}},{"name":"Parakey","company_id":"52cdef7c4bab8bd675297e39","description":"","address1":"1133 Broadway","address2":"Suite 706","zip_code":"10010","city":"New York","state_code":"NY","country_code":"USA","latitude":40.7438356,"longitude":-73.9890149,"geopoint":{"type":"Point","coordinates":[-73.9890149,40.7438356]}},{"name":"IceRocket","company_id":"52cdef7c4bab8bd675297e3d","description":"","address1":"145 Avenue of the Americas","address2":"7th Floor","zip_code":"10013","city":"New York","state_code":"NY","country_code":"USA","latitude":40.725107,"longitude":-74.00492,"geopoint":{"type":"Point","coordinates":[-74.00492,40.725107]}},{"name":"PhotoBox","company_id":"52cdef7c4bab8bd675297e38","description":"","address1":"407 Broome Street,","address2":"# 7B","zip_code":"10013","city":"New York","state_code":"NY","country_code":"USA","latitude":40.720699,"longitude":-73.998107,"geopoint":{"type":"Point","coordinates":[-73.998107,40.720699]}},{"name":"barablu","company_id":"52cdef7c4bab8bd675297e3f","description":"HQ","address1":"14 E 60th St","address2":"Ste 503","zip_code":"10022-7139","city":"New York","state_code":"NY","country_code":"USA","latitude":40.7642348,"longitude":-73.971697,"geopoint":{"type":"Point","coordinates":[-73.971697,40.7642348]}},{"name":"Socialtext","company_id":"52cdef7c4bab8bd675297e3b","description":"Main Office","address1":"159 West 25th Street 9th floor","address2":"","zip_code":"10010-4436","city":"New York","state_code":"NY","country_code":"USA","latitude":40.740512,"longitude":-73.987794,"geopoint":{"type":"Point","coordinates":[-73.987794,40.740512]}},{"name":"Bazaarvoice","company_id":"52cdef7c4bab8bd675297e3c","description":"US-Office","address1":"84 Franklin Street","address2":"","zip_code":"10013","city":"New York","state_code":"NY","country_code":"USA","latitude":40.718177,"longitude":-74.004602,"geopoint":{"type":"Point","coordinates":[-74.004602,40.718177]}},{"name":"spigit","company_id":"52cdef7c4bab8bd675297e3e","description":"Sales","address1":"","address2":"","zip_code":"","city":"Smithtown","state_code":"NY","country_code":"USA","latitude":40.856595,"longitude":-73.203734,"geopoint":{"type":"Point","coordinates":[-73.203734,40.856595]}},{"name":"ConnectMeAnywhere","company_id":"52cdef7c4bab8bd675297e41","description":"Corporate Office","address1":"1325 Franklin Avenue","address2":"Suite 160","zip_code":"11530","city":"Garden City","state_code":"NY","country_code":"USA","latitude":40.7349884,"longitude":-73.637714,"geopoint":{"type":"Point","coordinates":[-73.637714,40.7349884]}},{"name":"LiveWorld","company_id":"52cdef7c4bab8bd675297e42","description":"New York","address1":"","address2":"","zip_code":"10011","city":"New York","state_code":"NY","country_code":"USA","latitude":40.7464969,"longitude":-74.0094471,"geopoint":{"type":"Point","coordinates":[-74.0094471,40.7464969]}},{"name":"Ohloh","company_id":"52cdef7c4bab8bd675297e43","description":"","address1":"423 W. 55th Street,","address2":"10th Floor","zip_code":"10019","city":"New York","state_code":"NY","country_code":"USA","latitude":40.767418,"longitude":-73.987951,"geopoint":{"type":"Point","coordinates":[-73.987951,40.767418]}},{"name":"Clipperz","company_id":"52cdef7c4bab8bd675297e45","description":"","address1":"810 Seventh Avenue","address2":"","zip_code":"10019","city":"New York","state_code":"NY","country_code":"USA","latitude":40.762674,"longitude":-73.9821315,"geopoint":{"type":"Point","coordinates":[-73.9821315,40.762674]}},{"name":"PowerReviews","company_id":"52cdef7c4bab8bd675297e40","description":"","address1":"472 Central Chapel Rd","address2":"","zip_code":"14817","city":"Brooktondale","state_code":"NY","country_code":"USA","latitude":42.362886,"longitude":-76.356869,"geopoint":{"type":"Point","coordinates":[-76.356869,42.362886]}},{"name":"Tagged","company_id":"52cdef7c4bab8bd675297e46","description":"","address1":"One Gateway Center, Suite 770","address2":"","zip_code":"07102","city":"New York","state_code":"NY","country_code":"USA","latitude":40.756054,"longitude":-73.986951,"geopoint":{"type":"Point","coordinates":[-73.986951,40.756054]}},{"name":"hi5","company_id":"52cdef7c4bab8bd675297e44","description":"","address1":"Avenue C","address2":"","zip_code":"10009","city":"New York City","state_code":"NY","country_code":"USA","latitude":40.727763,"longitude":-73.976169,"geopoint":{"type":"Point","coordinates":[-73.976169,40.727763]}},{"name":"Nintendo","company_id":"52cdef7c4bab8bd675297e49","description":"","address1":"136-20 38th Ave","address2":"Suite #11C","zip_code":"11354","city":"Flushing","state_code":"NY","country_code":"USA","latitude":40.7609224,"longitude":-73.8304895,"geopoint":{"type":"Point","coordinates":[-73.8304895,40.7609224]}},{"name":"Indeed","company_id":"52cdef7c4bab8bd675297e4a","description":"","address1":"PO Box 26","address2":"","zip_code":"10113","city":"New York","state_code":"NY","country_code":"USA","latitude":40.7143,"longitude":-74.0067,"geopoint":{"type":"Point","coordinates":[-74.0067,40.7143]}},{"name":"37signals","company_id":"52cdef7c4bab8bd675297e48","description":"","address1":"80 North 7th Street","address2":"","zip_code":"11211","city":"Brooklyn","state_code":"NY","country_code":"USA","latitude":40.7197125,"longitude":-73.9607545,"geopoint":{"type":"Point","coordinates":[-73.9607545,40.7197125]}},{"name":"Cerado","company_id":"52cdef7c4bab8bd675297e4c","description":"","address1":"32 Old Slip,","address2":"10th Floor","zip_code":"10005","city":"New York","state_code":"NY","country_code":"USA","latitude":40.7038257,"longitude":-74.0083282,"geopoint":{"type":"Point","coordinates":[-74.0083282,40.7038257]}},{"name":"ONEsite","company_id":"52cdef7c4bab8bd675297e4e","description":"MindSmack HQ","address1":"311 West 43rd Street","address2":"Penthouse","zip_code":"10036","city":"New York","state_code":"NY","country_code":"USA","latitude":40.758492,"longitude":-73.989987,"geopoint":{"type":"Point","coordinates":[-73.989987,40.758492]}},{"name":"ScanScout","company_id":"52cdef7c4bab8bd675297e47","description":"","address1":"One Penn Plaza","address2":"Suite 5328","zip_code":"10119","city":"New York","state_code":"NY","country_code":"USA","latitude":40.7495594,"longitude":-73.9916617,"geopoint":{"type":"Point","coordinates":[-73.9916617,40.7495594]}},{"name":"Jaxtr","company_id":"52cdef7c4bab8bd675297e4b","description":"Home Office","address1":"PO Box 431","address2":"","zip_code":"11542","city":"Glen Cove","state_code":"NY","country_code":"USA","latitude":42.3756409,"longitude":-72.5196907,"geopoint":{"type":"Point","coordinates":[-72.5196907,42.3756409]}},{"name":"Going","company_id":"52cdef7c4bab8bd675297e51","description":"Manhattan","address1":"275 Madison Ave # 1201","address2":"","zip_code":"10016","city":"New York","state_code":"NY","country_code":"USA","latitude":40.74727,"longitude":-73.9800645,"geopoint":{"type":"Point","coordinates":[-73.9800645,40.74727]}},{"name":"NetSuite","company_id":"52cdef7c4bab8bd675297e4d","description":"Corporate Headquarters","address1":"3 Park Avenue","address2":"32nd Floor","zip_code":"10016","city":"New York","state_code":"NY","country_code":"USA","latitude":40.752672,"longitude":-73.97593,"geopoint":{"type":"Point","coordinates":[-73.97593,40.752672]}},{"name":"Wallhogs","company_id":"52cdef7c4bab8bd675297e53","description":"US Office","address1":"P.O. Box 7360","address2":"","zip_code":"10116","city":"New York","state_code":"NY","country_code":"USA","latitude":47.6023367,"longitude":-122.2850112,"geopoint":{"type":"Point","coordinates":[-122.2850112,47.6023367]}},{"name":"WikiYou","company_id":"52cdef7c4bab8bd675297e52","description":"","address1":"200 E10th St","address2":"616","zip_code":"10013","city":"New York","state_code":"NY","country_code":"USA","latitude":40.7297485,"longitude":-73.9867361,"geopoint":{"type":"Point","coordinates":[-73.9867361,40.7297485]}},{"name":"Respectance","company_id":"52cdef7c4bab8bd675297e54","description":"Corporate Offices","address1":"470 Park Avenue South","address2":"","zip_code":"10016","city":"New York","state_code":"NY","country_code":"USA","latitude":40.7454971,"longitude":-73.9826042,"geopoint":{"type":"Point","coordinates":[-73.9826042,40.7454971]}},{"name":"Kwiqq","company_id":"52cdef7c4bab8bd675297e50","description":"","address1":"35 West 36th Street","address2":"Suite 4W","zip_code":"10018","city":"New York","state_code":"NY","country_code":"USA","latitude":40.750597,"longitude":-73.985273,"geopoint":{"type":"Point","coordinates":[-73.985273,40.750597]}},{"name":"Curse","company_id":"52cdef7c4bab8bd675297e55","description":"","address1":"","address2":"","zip_code":"","city":"New York","state_code":"NY","country_code":"USA","latitude":40.756054,"longitude":-73.986951,"geopoint":{"type":"Point","coordinates":[-73.986951,40.756054]}},{"name":"Jaman","company_id":"52cdef7c4bab8bd675297e56","description":"New York","address1":"12 Desbrosses Street","address2":"","zip_code":"10013","city":"New York","state_code":"NY","country_code":"USA","latitude":40.723351,"longitude":-74.008767,"geopoint":{"type":"Point","coordinates":[-74.008767,40.723351]}},{"name":"DZOIC","company_id":"52cdef7c4bab8bd675297e59","description":"Headquarters","address1":"244 5th Avenue","address2":"Suite 2LP","zip_code":"10001","city":"New York","state_code":"NY","country_code":"USA","latitude":40.744618,"longitude":-73.987764,"geopoint":{"type":"Point","coordinates":[-73.987764,40.744618]}},{"name":"introNetworks","company_id":"52cdef7c4bab8bd675297e4f","description":"betaworks","address1":"416 W 13th Suite 203","address2":"","zip_code":"10014","city":"New York","state_code":"NY","country_code":"USA","latitude":40.74034,"longitude":-74.00721,"geopoint":{"type":"Point","coordinates":[-74.00721,40.74034]}},{"name":"eBuddy","company_id":"52cdef7c4bab8bd675297e58","description":"Americanlisted","address1":"445 Park Avenue","address2":"","zip_code":"10022","city":"New York","state_code":"NY","country_code":"USA","latitude":40.7615818,"longitude":-73.970624,"geopoint":{"type":"Point","coordinates":[-73.970624,40.7615818]}},{"name":"GoLightly","company_id":"52cdef7c4bab8bd675297e57","description":"New York City Office","address1":"55 Washington St. Suite 301","address2":"","zip_code":"11205","city":"Brooklyn","state_code":"NY","country_code":"USA","latitude":40.7028474,"longitude":-73.9906813,"geopoint":{"type":"Point","coordinates":[-73.9906813,40.7028474]}},{"name":"PeerMe","company_id":"52cdef7c4bab8bd675297e5b","description":"","address1":"PO Box 520","address2":"","zip_code":"10013","city":"New York","state_code":"NY","country_code":"USA","latitude":40.7217861,"longitude":-74.0094471,"geopoint":{"type":"Point","coordinates":[-74.0094471,40.7217861]}},{"name":"Zenfolio","company_id":"52cdef7c4bab8bd675297e5e","description":"Headquarters","address1":"100 Truman Avenue","address2":"","zip_code":"10703","city":"Yonkers","state_code":"NY","country_code":"USA","latitude":40.9717753,"longitude":-73.8722411,"geopoint":{"type":"Point","coordinates":[-73.8722411,40.9717753]}},{"name":"Kiptronic","company_id":"52cdef7c4bab8bd675297e5c","description":"NY Office","address1":"3959 North Buffalo Road","address2":"","zip_code":"14127","city":"Orchard Park","state_code":"NY","country_code":"USA","latitude":42.775549,"longitude":-78.7453547,"geopoint":{"type":"Point","coordinates":[-78.7453547,42.775549]}},{"name":"Grockit","company_id":"52cdef7c4bab8bd675297e5a","description":"New York","address1":"275 Madison Avenue, 14th Floor","address2":"","zip_code":"10016","city":"New York","state_code":"NY","country_code":"USA","latitude":40.7277434,"longitude":-73.9893359,"geopoint":{"type":"Point","coordinates":[-73.9893359,40.7277434]}},{"name":"FeVote","company_id":"52cdef7c4bab8bd675297e60","description":"New York Office","address1":"","address2":"","zip_code":"10003","city":"New York","state_code":"NY","country_code":"USA","latitude":40.7322535,"longitude":-73.9874105,"geopoint":{"type":"Point","coordinates":[-73.9874105,40.7322535]}},{"name":"CollegeWikis","company_id":"52cdef7c4bab8bd675297e5f","description":"World Headquarters","address1":"47 West 76th Street","address2":"#4","zip_code":"10023","city":"New York","state_code":"NY","country_code":"USA","latitude":40.779959,"longitude":-73.976151,"geopoint":{"type":"Point","coordinates":[-73.976151,40.779959]}},{"name":"JumpBox","company_id":"52cdef7c4bab8bd675297e62","description":"Corporate Headquarters","address1":"257 Park Ave South","address2":"","zip_code":"10010","city":"New York","state_code":"NY","country_code":"USA","latitude":40.755635,"longitude":-73.971509,"geopoint":{"type":"Point","coordinates":[-73.971509,40.755635]}},{"name":"Vuze","company_id":"52cdef7c4bab8bd675297e61","description":"HQ","address1":"22 W 19th.","address2":"9th Floor c\/o Proclivity Systems","zip_code":"10011","city":"NEW YORK","state_code":"NY","country_code":"USA","latitude":40.7395876,"longitude":-73.9928423,"geopoint":{"type":"Point","coordinates":[-73.9928423,40.7395876]}},{"name":"Phonezoo","company_id":"52cdef7c4bab8bd675297e63","description":"","address1":"72 Madison Avenue","address2":"","zip_code":"","city":"New York","state_code":"NY","country_code":"USA","latitude":40.743877,"longitude":-73.98618,"geopoint":{"type":"Point","coordinates":[-73.98618,40.743877]}},{"name":"Relationals","company_id":"52cdef7c4bab8bd675297e65","description":"Corporate Headquarters","address1":"","address2":"","zip_code":"10016","city":"New York","state_code":"NY","country_code":"USA","latitude":40.743877,"longitude":-73.98618,"geopoint":{"type":"Point","coordinates":[-73.98618,40.743877]}},{"name":"LongJump","company_id":"52cdef7c4bab8bd675297e64","description":"","address1":"127 East 28 Street","address2":"2R","zip_code":"10016","city":"New York","state_code":"NY","country_code":"USA","latitude":40.751234,"longitude":-73.9952442,"geopoint":{"type":"Point","coordinates":[-73.9952442,40.751234]}},{"name":"ProfileBuilder","company_id":"52cdef7c4bab8bd675297e67","description":"Main Office","address1":"","address2":"","zip_code":"","city":"New York","state_code":"NY","country_code":"USA","latitude":40.756054,"longitude":-73.986951,"geopoint":{"type":"Point","coordinates":[-73.986951,40.756054]}},{"name":"Wishpot","company_id":"52cdef7c4bab8bd675297e66","description":"World Headquarters","address1":"","address2":"","zip_code":"10001","city":"New York City","state_code":"NY","country_code":"USA","latitude":40.7489381,"longitude":-73.9918181,"geopoint":{"type":"Point","coordinates":[-73.9918181,40.7489381]}},{"name":"Truemors","company_id":"52cdef7c4bab8bd675297e69","description":"HQ","address1":"","address2":"","zip_code":"","city":"New York","state_code":"NY","country_code":"USA","latitude":40.756054,"longitude":-73.986951,"geopoint":{"type":"Point","coordinates":[-73.986951,40.756054]}},{"name":"DOmedia","company_id":"52cdef7c4bab8bd675297e68","description":"Spurd","address1":"","address2":"","zip_code":"","city":"Brooklyn","state_code":"NY","country_code":"USA","latitude":40.675234,"longitude":-73.971043,"geopoint":{"type":"Point","coordinates":[-73.971043,40.675234]}},{"name":"PodTech","company_id":"52cdef7c4bab8bd675297e6b","description":"","address1":"","address2":"","zip_code":"","city":"New York","state_code":"NY","country_code":"USA","latitude":40.756054,"longitude":-73.986951,"geopoint":{"type":"Point","coordinates":[-73.986951,40.756054]}},{"name":"Nononina","company_id":"52cdef7c4bab8bd675297e6a","description":"New York","address1":"21 East 7th Street","address2":"","zip_code":"10003","city":"New York","state_code":"NY","country_code":"USA","latitude":40.72874,"longitude":-73.989324,"geopoint":{"type":"Point","coordinates":[-73.989324,40.72874]}},{"name":"NowPublic","company_id":"52cdef7c4bab8bd675297e6c","description":"","address1":"608 5th Avenue","address2":"Suite 300","zip_code":"10020","city":"New York","state_code":"NY","country_code":"USA","latitude":40.758062,"longitude":-73.978432,"geopoint":{"type":"Point","coordinates":[-73.978432,40.758062]}},{"name":"PayScale","company_id":"52cdef7c4bab8bd675297e6d","description":"New York","address1":"","address2":"","zip_code":"","city":"","state_code":"NY","country_code":"USA","latitude":40.756054,"longitude":-73.986951,"geopoint":{"type":"Point","coordinates":[-73.986951,40.756054]}},{"name":"Crackle","company_id":"52cdef7c4bab8bd675297e6e","description":"Dice Holdings","address1":"","address2":"","zip_code":"10016","city":"New York","state_code":"NY","country_code":"USA","latitude":40.74727,"longitude":-73.9800645,"geopoint":{"type":"Point","coordinates":[-73.9800645,40.74727]}},{"name":"Clipmarks","company_id":"52cdef7c4bab8bd675297e70","description":"","address1":"","address2":"","zip_code":"10001","city":"New York","state_code":"NY","country_code":"USA","latitude":40.7489381,"longitude":-73.9918181,"geopoint":{"type":"Point","coordinates":[-73.9918181,40.7489381]}},{"name":"Truphone","company_id":"52cdef7c4bab8bd675297e72","description":"","address1":"28 w. 27th St.","address2":"10F","zip_code":"10001","city":"New York","state_code":"NY","country_code":"USA","latitude":40.714279,"longitude":-73.9565551,"geopoint":{"type":"Point","coordinates":[-73.9565551,40.714279]}},{"name":"Forbes","company_id":"52cdef7c4bab8bd675297e71","description":"New York Office","address1":"56 West 22nd Street","address2":"10th Floor","zip_code":"11217","city":"New York","state_code":"NY","country_code":"USA","latitude":40.744697,"longitude":-73.989947,"geopoint":{"type":"Point","coordinates":[-73.989947,40.744697]}},{"name":"Boonex","company_id":"52cdef7c4bab8bd675297e73","description":"Sales & Marketing","address1":"632 W. 28th St.","address2":"8th Floor","zip_code":"10001","city":"New York","state_code":"NY","country_code":"USA","latitude":40.7523796,"longitude":-74.005568,"geopoint":{"type":"Point","coordinates":[-74.005568,40.7523796]}},{"name":"Hotswap","company_id":"52cdef7c4bab8bd675297e74","description":"New York","address1":"","address2":"","zip_code":"","city":"Brooklyn","state_code":"NY","country_code":"USA","latitude":40.675234,"longitude":-73.971043,"geopoint":{"type":"Point","coordinates":[-73.971043,40.675234]}},{"name":"Sony","company_id":"52cdef7c4bab8bd675297e6f","description":"","address1":"425 West 13th Street","address2":"Suite 504","zip_code":"10014","city":"New York","state_code":"NY","country_code":"USA","latitude":40.7408042,"longitude":-74.00717,"geopoint":{"type":"Point","coordinates":[-74.00717,40.7408042]}},{"name":"IntenseDebate","company_id":"52cdef7c4bab8bd675297e75","description":"","address1":"49 W 27th St Uppr A","address2":"","zip_code":"10001-6936","city":"New York City","state_code":"NY","country_code":"USA","latitude":40.7450497,"longitude":-73.9900984,"geopoint":{"type":"Point","coordinates":[-73.9900984,40.7450497]}},{"name":"Reddit","company_id":"52cdef7c4bab8bd675297e77","description":"JFK","address1":"","address2":"","zip_code":"","city":"","state_code":"NY","country_code":"USA","latitude":40.756054,"longitude":-73.986951,"geopoint":{"type":"Point","coordinates":[-73.986951,40.756054]}},{"name":"Adobe Systems","company_id":"52cdef7c4bab8bd675297e5d","description":"New York Office","address1":"","address2":"","zip_code":"10011","city":"New York","state_code":"NY","country_code":"USA","latitude":40.7464969,"longitude":-74.0094471,"geopoint":{"type":"Point","coordinates":[-74.0094471,40.7464969]}},{"name":"Rebtel","company_id":"52cdef7c4bab8bd675297e78","description":"New York Office","address1":"28 East 28th Street","address2":"9th Floor","zip_code":"10016","city":"New York","state_code":"NY","country_code":"USA","latitude":40.7439449,"longitude":-73.9855424,"geopoint":{"type":"Point","coordinates":[-73.9855424,40.7439449]}},{"name":"Lotame","company_id":"52cdef7c4bab8bd675297e76","description":"Corporate","address1":"213 West 35th Street","address2":"Suite # 1201A","zip_code":"1001","city":"New York","state_code":"NY","country_code":"USA","latitude":40.752143,"longitude":-73.990675,"geopoint":{"type":"Point","coordinates":[-73.990675,40.752143]}},{"name":"Wikia","company_id":"52cdef7c4bab8bd675297e79","description":"New York","address1":"32-14 42nd St","address2":"","zip_code":"11103","city":"Astoria","state_code":"NY","country_code":"USA","latitude":40.7597951,"longitude":-73.9161267,"geopoint":{"type":"Point","coordinates":[-73.9161267,40.7597951]}},{"name":"Buxfer","company_id":"52cdef7c4bab8bd675297e7d","description":"HQ","address1":"","address2":"","zip_code":"","city":"New York City","state_code":"NY","country_code":"USA","latitude":40.756054,"longitude":-73.986951,"geopoint":{"type":"Point","coordinates":[-73.986951,40.756054]}}]